City,Cloudiness,Country,Date,Humidity,Lat,Lng,Max Temp,Wind Speed
Norman Wells,20,CA,1589151028,59,65.28,-126.83,55.4,14.99
Villa del Rosario,20,CO,1589151029,49,7.83,-72.47,93.2,9.17
Jamestown,90,US,1589151030,53,42.1,-79.24,53.01,14.99
Qaqortoq,58,GL,1589151031,57,60.72,-46.03,48.2,12.75
Kloulklubed,75,PW,1589151032,94,7.04,134.26,77.0,3.36
Cape Town,90,ZA,1589150912,100,-33.93,18.42,63.0,4.7
Ushuaia,75,AR,1589150909,87,-54.8,-68.3,42.8,2.75
Hermanus,0,ZA,1589151036,93,-34.42,19.23,55.0,4.21
Port Elizabeth,0,ZA,1589151037,62,-33.92,25.57,59.0,3.36
Rikitea,14,PF,1589151038,79,-23.12,-134.97,75.36,8.52
Sheridan,90,US,1589150834,70,44.83,-106.92,42.8,4.7
Puerto Lempira,40,HN,1589151040,74,15.27,-83.77,87.8,10.29
Novopavlovka,37,RU,1589151042,54,51.22,109.21,43.75,18.75
East London,0,ZA,1589151043,34,-33.02,27.91,72.45,8.16
Charlestown,0,AU,1589151044,56,-32.95,151.67,57.0,1.99
Livingston,20,GB,1589151045,64,55.9,-3.52,37.99,6.93
Mataura,76,NZ,1589151046,70,-46.19,168.86,53.04,2.17
Atuona,17,PF,1589150990,78,-9.8,-139.03,81.18,14.52
São João da Barra,0,BR,1589151049,67,-21.64,-41.05,70.34,9.73
Saint Paul Harbor,90,US,1589150895,87,57.79,-152.41,46.4,10.29
Shitanjing,0,CN,1589151051,44,39.23,106.34,46.09,24.99
Arrondissement de Lannion,90,FR,1589151052,87,48.75,-3.42,50.0,13.87
Gwanda,1,ZW,1589151053,90,-20.93,29.0,51.8,5.59
Lodja,94,CD,1589151055,85,-3.48,23.43,71.96,1.39
Aykhal,90,RU,1589151056,79,66.0,111.5,24.8,8.95
Beïnamar,9,TD,1589151057,51,8.67,15.38,84.52,5.64
Mogadishu,96,SO,1589151058,80,2.04,45.34,81.79,14.88
Nova Olímpia,88,BR,1589151059,79,-14.8,-57.29,76.5,2.77
Punta Arenas,40,CL,1589151061,93,-53.15,-70.92,41.0,6.93
Thompson,5,CA,1589151062,88,55.74,-97.86,32.0,9.17
Havre-St-Pierre,40,CA,1589151063,69,50.23,-63.6,37.4,25.28
Cherskiy,5,RU,1589151064,70,68.75,161.3,40.37,18.34
Koslan,38,RU,1589151065,86,63.46,48.9,42.82,6.87
Vaini,20,TO,1589151066,69,-21.2,-175.2,80.6,17.22
Magdagachi,0,RU,1589151067,58,53.45,125.8,42.51,8.72
Hobart,75,AU,1589150885,76,-42.88,147.33,50.0,8.05
Anadyr,75,RU,1589151070,91,64.75,177.48,33.8,31.32
Clyde River,90,CA,1589151071,78,70.47,-68.59,14.0,6.93
Faanui,99,PF,1589151072,78,-16.48,-151.75,81.75,9.48
Mersing,100,MY,1589151073,100,2.43,103.84,75.2,5.82
Butaritari,16,KI,1589151074,77,3.07,172.79,83.5,9.06
Qaanaaq,0,GL,1589151075,83,77.48,-69.36,9.01,1.12
Cody,90,US,1589151077,56,44.53,-109.06,51.01,12.75
Tasiilaq,19,GL,1589151078,92,65.61,-37.64,28.4,10.29
Iqaluit,75,CA,1589151079,63,63.75,-68.51,26.6,17.22
Mossamedes,2,AO,1589151080,58,-15.2,12.15,78.12,4.25
Lüderitz,0,NA,1589151081,28,-26.65,15.16,73.4,5.82
Mar del Plata,36,AR,1589151082,71,-38.0,-57.56,57.2,6.93
Rincon,20,US,1589150841,49,32.3,-81.24,73.4,8.05
Ayr,20,GB,1589151085,69,55.46,-4.63,37.4,4.7
Rongcheng,0,CN,1589151086,92,30.63,117.85,69.01,1.52
Rovaniemi,90,FI,1589150887,100,66.5,25.72,30.2,5.82
Hofn,75,IS,1589151088,62,64.25,-15.21,41.32,5.37
Tiarei,50,PF,1589151089,62,-17.53,-149.33,87.8,4.7
Moose Factory,90,CA,1589151090,73,51.26,-80.61,23.0,21.92
Doha,99,QA,1589151092,38,25.29,51.53,89.6,12.75
Yerbogachën,46,RU,1589151093,83,61.28,108.01,34.0,10.45
Oranjemund,0,NA,1589151094,41,-28.55,16.43,68.0,1.16
Pisco,5,PE,1589150922,73,-13.7,-76.22,69.8,18.34
Ahipara,90,NZ,1589151096,65,-35.17,173.17,63.7,8.66
Caravelas,8,BR,1589151097,74,-17.71,-39.25,70.54,6.46
Barrow,1,US,1589151099,90,71.29,-156.79,32.0,4.7
Jais,21,IN,1589151100,29,26.25,81.53,85.3,7.4
Mahébourg,40,MU,1589151101,56,-20.41,57.7,73.4,10.29
Ribeira Grande,35,PT,1589151102,70,38.52,-28.7,58.98,19.55
Saint-Joseph,75,RE,1589151103,68,-21.37,55.62,69.8,5.82
Lorengau,19,PG,1589151104,75,-2.02,147.27,85.84,9.55
Qingdao,8,CN,1589151106,93,36.1,120.37,69.01,4.47
Te Anau,100,NZ,1589151107,85,-45.42,167.72,49.93,0.81
Puerto Ayora,20,EC,1589151108,74,-0.74,-90.35,82.4,18.34
Faya,1,SA,1589151109,68,18.39,42.45,68.0,0.94
Esil,0,KZ,1589151110,74,51.96,66.4,61.79,4.79
Salalah,20,OM,1589151111,83,17.02,54.09,82.4,3.78
Talnakh,67,RU,1589151112,86,69.49,88.4,30.2,8.95
Turaif,0,SA,1589150963,51,31.67,38.66,62.6,6.93
Kapaa,75,US,1589151115,65,22.08,-159.32,80.6,16.11
Yellowknife,20,CA,1589151116,44,62.46,-114.35,43.0,12.75
Port Alfred,0,ZA,1589151117,45,-33.59,26.89,71.01,7.92
Newport,51,GB,1589151118,63,51.59,-3.0,44.01,1.99
Dikson,0,RU,1589151119,98,73.51,80.55,21.18,10.42
Nome,75,US,1589150933,50,64.5,-165.41,53.6,8.05
Solano,40,US,1589151122,43,38.23,-121.95,78.8,23.04
Lebu,18,CL,1589151123,82,-37.62,-73.65,53.55,5.46
Sierra Vista,40,US,1589151124,18,31.55,-110.3,82.4,8.05
Bengkulu,98,ID,1589150945,89,-3.8,102.27,75.99,3.36
Port Hardy,40,CA,1589151126,37,50.7,-127.42,71.6,4.7
Berlevåg,98,NO,1589151127,82,70.86,29.09,35.46,13.8
Upernavik,6,GL,1589151129,86,72.79,-56.15,16.61,13.18
Castro,0,BR,1589151130,90,-24.79,-50.01,55.81,4.65
Chui,0,UY,1589151131,76,-33.7,-53.46,63.81,8.5
Caucayá,31,CO,1589151132,90,-0.19,-74.78,76.17,2.13
Khatanga,92,RU,1589151133,97,71.97,102.5,27.61,5.21
La Ronge,20,CA,1589151089,27,55.1,-105.28,41.0,4.7
Busselton,72,AU,1589151136,76,-33.65,115.33,46.99,2.82
Tuktoyaktuk,40,CA,1589151137,99,69.45,-133.04,35.6,4.7
Hithadhoo,98,MV,1589151138,76,-0.6,73.08,85.41,13.4
Nikolskoye,53,RU,1589151139,49,59.7,30.79,46.4,8.95
Avarua,99,CK,1589151140,83,-21.21,-159.78,80.6,14.99
Vestmannaeyjar,38,IS,1589151141,70,63.44,-20.27,42.67,15.26
Poum,8,NC,1589151142,73,-20.23,164.02,74.95,5.66
Yaan,31,NG,1589151144,86,7.38,8.57,76.06,5.3
Bredasdorp,0,ZA,1589151145,87,-34.53,20.04,59.0,2.24
Broken Hill,0,AU,1589150941,70,-31.95,141.43,44.6,5.82
Lucea,20,JM,1589151147,70,18.45,-78.17,87.8,9.17
Tarko-Sale,81,RU,1589151148,80,64.92,77.78,42.01,4.0
Ballina,53,AU,1589151149,54,-28.87,153.57,59.0,11.41
Arraial do Cabo,0,BR,1589151150,66,-22.97,-42.03,72.61,22.39
New Norfolk,83,AU,1589151152,86,-42.78,147.06,50.0,5.01
Port Lincoln,39,AU,1589151153,69,-34.73,135.87,54.37,10.69
Portland,90,US,1589151154,23,45.52,-122.68,87.01,17.22
Örnsköldsvik,90,SE,1589151155,93,63.29,18.72,32.0,10.29
Kalangala,20,UG,1589151156,88,-0.31,32.23,71.6,4.7
San Roque,59,ES,1589151157,72,36.21,-5.38,64.4,12.75
Balad,0,IQ,1589151159,27,34.02,44.15,72.39,4.92
Upata,58,VE,1589151160,70,8.01,-62.4,84.0,8.01
Harper,98,LR,1589151161,83,4.38,-7.72,81.54,11.43
Salisbury,94,GB,1589150902,69,51.07,-1.8,44.6,27.51
Pinawa,93,CA,1589151163,47,50.15,-95.88,43.39,12.33
Yulara,92,AU,1589151164,42,-25.24,130.99,51.8,6.93
Tiksi,97,RU,1589151165,98,71.69,128.87,25.38,7.02
San Patricio,40,MX,1589151167,83,19.22,-104.7,80.6,11.41
Morocelí,40,HN,1589151168,83,14.12,-86.87,71.6,6.93
Saskylakh,59,RU,1589151169,96,71.92,114.08,18.68,9.01
San Fernando del Valle de Catamarca,0,AR,1589151170,45,-28.47,-65.79,72.0,4.05
Luanda,40,AO,1589151115,88,-8.84,13.23,80.6,4.7
Severo-Kuril'sk,70,RU,1589151172,85,50.68,156.12,35.13,3.27
Bathsheba,40,BB,1589151173,69,13.22,-59.52,82.4,17.22
Tigil',98,RU,1589151175,87,57.8,158.67,35.37,17.67
Skibbereen,20,IE,1589151176,65,51.55,-9.27,44.6,23.04
Ponta do Sol,20,PT,1589151177,72,32.67,-17.1,66.2,3.36
Chokurdakh,99,RU,1589151178,100,70.63,147.92,33.42,14.34
Kahului,40,US,1589151084,58,20.89,-156.47,82.4,19.46
Gamba,100,GA,1589151180,91,-2.65,10.0,75.43,3.04
Saint-Augustin,100,CA,1589151181,91,51.23,-58.65,37.9,12.66
Ancud,75,CL,1589151183,81,-41.87,-73.82,53.01,9.17
Vao,95,NC,1589151184,65,-22.67,167.48,71.73,6.69
Constitución,5,CL,1589151185,79,-35.33,-72.42,55.11,9.19
Pemangkat,87,ID,1589151186,90,1.17,108.97,78.44,4.29
Srednekolymsk,79,RU,1589151187,94,67.45,153.68,35.19,10.45
Churintzio,48,MX,1589151189,17,20.15,-102.07,83.34,4.29
Provideniya,100,RU,1589151190,91,64.38,-173.3,36.07,9.24
Seoul,20,KR,1589150953,87,37.57,126.98,59.0,4.7
Kushima,40,JP,1589151192,72,31.46,131.23,68.0,12.75
Bethel,1,US,1589151193,29,41.37,-73.41,60.8,19.46
Carnarvon,13,AU,1589151194,60,-24.87,113.63,70.07,7.11
Borogontsy,72,RU,1589151195,68,62.67,131.17,39.78,5.35
Lewistown,75,US,1589151197,23,40.6,-77.57,64.4,5.99
Albany,98,US,1589150913,45,42.6,-73.97,54.0,4.97
Beyneu,100,KZ,1589151199,90,45.32,55.2,61.21,11.7
Dukat,100,RU,1589151200,99,62.55,155.55,30.29,1.99
Kozhva,24,RU,1589151201,92,65.11,57.05,39.13,5.32
Hilo,75,US,1589151202,57,19.73,-155.09,80.6,9.17
Sarakhs,0,IR,1589151204,56,36.54,61.16,69.8,2.24
San Quintín,18,MX,1589151205,70,30.48,-115.95,67.41,9.55
Coyhaique,40,CL,1589151206,81,-45.58,-72.07,42.8,5.41
Kirakira,0,SB,1589151207,68,-10.45,161.92,85.37,6.55
Bambous Virieux,40,MU,1589151208,56,-20.34,57.76,73.4,10.29
Manoel Urbano,71,BR,1589151209,72,-8.84,-69.26,78.46,2.37
Departamento de Maldonado,0,UY,1589151211,72,-34.67,-54.92,66.99,1.12
Sayyan,5,YE,1589151212,43,15.17,44.32,61.09,2.53
Lagoa,50,PT,1589151213,71,39.05,-27.98,58.06,24.18
Cap-aux-Meules,75,CA,1589151214,64,47.38,-61.86,39.2,27.51
Sørland,100,NO,1589151215,78,67.67,12.69,37.18,11.5
Thunder Bay,75,CA,1589151045,45,48.4,-89.32,44.01,6.93
Acarí,47,PE,1589151218,66,-15.43,-74.62,70.74,3.91
Santa Cruz de la Sierra,20,BO,1589150990,65,-17.8,-63.17,77.0,19.46
Rio Grande,39,BR,1589151220,86,-32.03,-52.1,59.0,9.19
Vaitape,99,PF,1589151221,76,-16.52,-151.75,82.54,9.73
Viedma,6,AR,1589151222,36,-40.81,-63.0,59.9,17.69
Yei,100,SS,1589151223,92,4.09,30.68,69.33,3.65
Bukama,20,CD,1589151225,73,-9.2,25.85,68.31,2.86
Yar-Sale,100,RU,1589151226,97,66.83,70.83,32.43,5.12
Kaitangata,28,NZ,1589151227,72,-46.28,169.85,52.0,3.0
Tomatlán,20,MX,1589151228,38,19.93,-105.25,87.91,7.92
Kimbe,80,PG,1589151229,71,-5.55,150.14,85.8,2.62
Pontes e Lacerda,91,BR,1589151230,80,-15.23,-59.34,74.89,2.84
Kapit,100,MY,1589151232,95,2.02,112.93,75.99,0.2
College,20,US,1589151233,21,64.86,-147.8,79.0,6.93
Del Rio,1,US,1589151234,31,29.36,-100.9,87.8,13.87
Kruisfontein,0,ZA,1589151235,49,-34.0,24.73,60.64,4.76
Manuangan,50,PH,1589151236,81,7.28,124.4,80.74,1.34
Oktyabr'skoye,75,RU,1589151237,70,43.06,44.74,42.71,4.72
Devarkonda,25,IN,1589151239,50,16.7,78.93,82.58,4.72
Barquisimeto,24,VE,1589150995,53,10.07,-69.32,77.0,14.99
Sulphur,40,US,1589151241,44,30.24,-93.38,79.0,4.7
Bikin,100,RU,1589151242,88,46.82,134.26,51.53,5.44
Ilulissat,100,GL,1589151243,74,69.22,-51.1,33.8,9.17
Verkhoyansk,100,RU,1589151244,96,67.54,133.38,30.58,6.31
Chulym,0,RU,1589151245,59,55.1,80.96,58.06,6.26
Sabang,100,ID,1589151247,80,5.89,95.32,81.36,5.88
Thinadhoo,100,MV,1589151248,76,0.53,72.93,85.48,14.2
Nizhniy Bestyakh,96,RU,1589151249,55,61.96,129.91,37.4,6.71
Cayenne,75,GF,1589151250,100,4.93,-52.33,75.2,2.24
Coahuayana Viejo,40,MX,1589151251,48,18.73,-103.68,87.8,17.22
Ostrovnoy,100,RU,1589151252,95,68.05,39.51,32.13,18.01
Saucillo,56,MX,1589151254,20,28.02,-105.28,85.8,2.35
Ýpsonas,0,CY,1589151255,82,34.69,32.96,62.6,1.12
Nuuk,97,GL,1589151256,70,64.18,-51.72,42.8,11.41
Necochea,19,AR,1589151257,62,-38.55,-58.74,53.01,1.99
Bluff,99,NZ,1589151258,72,-46.6,168.33,53.38,7.76
São Filipe,39,CV,1589151259,77,14.9,-24.5,73.13,6.38
Namatanai,84,PG,1589151261,69,-3.67,152.43,85.35,7.11
Alofi,0,NU,1589151262,88,-19.06,-169.92,82.4,6.93
Leningradskiy,100,RU,1589151263,94,69.38,178.42,35.42,14.16
Mouzourás,54,GR,1589151264,93,35.53,24.15,60.8,0.67
São Lourenço,0,BR,1589151265,84,-22.12,-45.05,54.46,1.39
Conroe,1,US,1589151266,36,30.31,-95.46,82.0,3.36
Pevek,0,RU,1589151267,81,69.7,170.31,36.63,16.82
Buckeye,1,US,1589151086,13,33.37,-112.58,100.99,6.93
Manta,65,EC,1589151249,78,-0.95,-80.73,82.4,13.87
Nsanje,88,MW,1589151271,93,-16.92,35.26,64.45,2.01
Ixtapa,75,MX,1589151272,74,20.7,-105.2,82.4,11.41
Yumen,0,CN,1589151273,60,40.28,97.2,42.85,9.4
Orange Cove,1,US,1589151275,22,36.62,-119.31,91.99,5.35
Marawi,43,PH,1589151276,84,8.0,124.29,81.0,4.0
Padang,100,ID,1589151277,78,-0.95,100.35,78.51,4.32
Goragorskiy,62,RU,1589151278,93,43.5,45.08,46.4,4.47
Hanting,40,CN,1589151279,48,36.77,119.21,63.84,6.91
Karratha,88,AU,1589151280,30,-20.74,116.85,74.25,15.61
Fairbanks,1,US,1589151091,20,64.84,-147.72,79.0,3.36
Našice,1,HR,1589151283,67,45.49,18.09,61.0,6.53
Jianning,10,CN,1589151284,93,27.83,113.15,64.4,4.47
Westport,1,US,1589151285,44,41.14,-73.36,61.0,17.22
Lianzhou,77,CN,1589151286,79,24.78,112.38,72.73,2.3
Dunedin,74,NZ,1589151216,91,-45.87,170.5,51.01,3.0
Smithers,20,CA,1589151288,20,54.78,-127.17,62.6,10.29
Vila,9,PT,1589151290,89,42.03,-8.16,48.99,3.09
Jodiya,2,IN,1589151291,88,22.69,70.31,80.22,10.11
Mariakani,100,KE,1589151292,84,-3.86,39.47,72.88,9.35
Tolyatti,49,RU,1589151126,76,53.53,49.35,50.0,2.24
San Andrés,20,CO,1589151294,74,12.58,-81.7,87.8,9.17
Torbay,90,CA,1589151001,90,47.67,-52.73,37.99,35.57
Geraldton,18,AU,1589151297,81,-28.77,114.6,51.8,4.7
George Town,20,MY,1589151298,94,5.41,100.34,78.8,3.36
Tommot,100,RU,1589151027,75,58.96,126.29,37.74,4.63
Airai,20,TL,1589151300,93,-8.93,125.41,61.32,3.24
Nassau,1,US,1589151301,27,40.75,-73.58,64.0,21.92
Broome,90,US,1589151302,32,42.25,-75.83,57.0,16.11
Saint George,1,US,1589151304,18,37.1,-113.58,91.99,17.22
Sitka,75,US,1589151213,23,57.05,-135.33,73.4,10.29
Valera,41,VE,1589151306,70,9.32,-70.6,79.79,1.7
Dingle,99,PH,1589151307,72,11.0,122.67,82.67,5.75
Comodoro Rivadavia,40,AR,1589151081,66,-45.87,-67.5,51.8,12.75
Bassar,90,TG,1589151309,95,9.25,0.78,72.27,7.63
Macapá,75,BR,1589151310,100,0.04,-51.07,82.4,3.36
Paracuru,100,BR,1589151312,75,-3.41,-39.03,80.01,1.01
Souillac,40,MU,1589151313,56,-20.52,57.52,73.4,10.29
Ambilobe,68,MG,1589151314,86,-13.2,49.05,70.12,4.07
Henties Bay,13,NA,1589151315,45,-22.12,14.28,70.45,6.42
Yangi Marg`ilon,0,UZ,1589151316,63,40.43,71.72,62.6,3.69
Codrington,21,AU,1589151317,88,-38.27,141.97,50.2,11.63
Ulladulla,0,AU,1589151318,57,-35.35,150.47,48.2,12.75
Narsaq,71,GL,1589151320,57,60.92,-46.05,48.2,12.75
Port Shepstone,0,ZA,1589151321,43,-30.74,30.45,68.61,7.72
Seymchan,100,RU,1589151322,85,62.88,152.43,34.77,11.43
Otjimbingwe,44,NA,1589151323,30,-22.35,16.13,67.28,7.29
Greymouth,100,NZ,1589151325,73,-42.47,171.2,56.12,7.54
Xining,30,CN,1589151180,78,36.62,101.77,36.07,2.28
Teya,77,RU,1589151327,61,60.38,92.63,51.24,4.54
Malaṅgawā,29,NP,1589151328,38,26.86,85.56,81.9,5.7
Nanortalik,33,GL,1589151329,77,60.14,-45.24,44.24,17.43
Santo Antônio da Platina,38,BR,1589151331,80,-23.3,-50.08,62.65,3.76
Ende,34,ID,1589151332,76,-8.84,121.66,76.95,2.46
Saldanha,0,ZA,1589151333,67,-33.01,17.94,57.2,8.05
Emba,100,KZ,1589151334,68,48.83,58.14,62.64,8.19
Jaisalmer,0,IN,1589151335,54,26.91,70.92,83.25,12.93
Minot,90,US,1589151336,33,48.23,-101.3,46.4,11.41
Balkhash,97,KZ,1589151337,72,46.84,74.98,60.42,6.8
Baturyn,19,UA,1589151339,87,51.35,32.88,49.19,3.69
Kavieng,16,PG,1589151340,75,-2.57,150.8,85.55,10.96
Kainantu,67,PG,1589151341,81,-6.29,145.87,70.02,2.35
Tilichiki,100,RU,1589151342,100,60.47,166.1,31.17,2.13
Chowchilla,1,US,1589151343,21,37.12,-120.26,89.6,6.93
Salinópolis,6,BR,1589151344,85,-0.61,-47.36,79.95,10.76
Cabedelo,20,BR,1589151346,88,-6.98,-34.83,78.8,5.82
Voh,2,NC,1589151347,66,-20.97,164.7,77.68,2.26
Baculin,100,PH,1589151348,71,7.45,126.58,82.8,2.53
Šibenik,46,HR,1589151349,52,43.73,15.91,66.0,6.93
Zeya,35,RU,1589151350,66,53.75,127.27,40.86,10.56
Togur,35,RU,1589151351,54,58.36,82.83,60.42,4.43
Samaná,20,DO,1589151352,62,19.21,-69.34,87.8,6.93
Praia da Vitória,40,PT,1589151354,77,38.73,-27.07,59.0,22.66
Cidreira,100,BR,1589151355,70,-30.18,-50.21,66.49,11.45
Itarema,100,BR,1589151356,87,-2.92,-39.92,76.03,10.56
Sorong,100,ID,1589151357,83,-0.88,131.25,82.76,11.68
Lubango,41,AO,1589151322,64,-14.92,13.49,58.82,1.99
Yeniseysk,89,RU,1589151359,62,58.45,92.17,52.7,3.98
Mayumba,100,GA,1589151360,86,-3.43,10.66,76.84,2.55
Astoria,1,US,1589151349,82,46.19,-123.83,63.0,11.41
Oriximiná,87,BR,1589151363,84,-1.77,-55.87,78.1,3.47
Caramay,99,PH,1589151364,77,10.18,119.24,82.09,3.47
Alugan,100,PH,1589151365,83,12.22,125.48,82.65,8.95
Vila Franca do Campo,40,PT,1589151366,72,37.72,-25.43,59.0,10.29
Mocajuba,51,BR,1589151367,95,-2.58,-49.51,76.23,3.06
Newala,25,TZ,1589151368,100,-10.94,39.28,64.11,2.86
Sur,0,OM,1589151370,38,22.57,59.53,85.24,7.67
Tevaitoa,95,PF,1589151371,75,-16.78,-151.5,82.65,10.63
Mount Isa,0,AU,1589151372,29,-20.73,139.5,60.8,9.17
Tautira,71,PF,1589151373,62,-17.73,-149.15,87.8,4.7
Pochutla,40,MX,1589151374,62,15.74,-96.47,89.6,17.22
Fortuna,1,US,1589151375,82,40.6,-124.16,64.0,17.22
San Francisco,20,US,1589151098,52,37.77,-122.42,66.2,18.34
Santiago del Estero,0,AR,1589151378,72,-27.8,-64.26,69.8,3.04
Matara,100,LK,1589151104,82,5.95,80.54,79.93,3.11
Sobolevo,2,RU,1589151380,81,54.43,31.9,45.68,0.67
Miandrivazo,98,MG,1589151381,63,-19.52,45.47,74.61,3.6
Puerto Madryn,50,AR,1589151332,37,-42.77,-65.04,58.28,25.7
Tabou,91,CI,1589151384,87,4.42,-7.35,80.44,11.77
Lima,26,PE,1589151298,64,-12.04,-77.03,71.6,14.99
Allāpalli,1,IN,1589151386,61,19.42,80.07,77.29,1.14
Inuvik,40,CA,1589151387,46,68.35,-133.72,50.0,6.93
Bara,1,NG,1589151388,54,10.37,10.73,85.91,11.36
Saint-Philippe,75,RE,1589151389,68,-21.36,55.77,69.8,5.82
Port-Gentil,40,GA,1589151390,94,-0.72,8.78,77.0,6.53
Chifeng,0,CN,1589151392,34,42.27,118.96,55.53,17.0
Puerto Cabezas,72,NI,1589151393,78,14.04,-83.39,83.41,10.83
Aripuanã,95,BR,1589151394,96,-9.17,-60.63,75.38,1.48
Husavik,6,IS,1589151395,39,66.04,-17.34,46.4,34.45
Kaoma,69,ZM,1589151396,80,-14.78,24.8,57.45,4.9
Giżycko,100,PL,1589151397,86,54.04,21.76,54.39,13.0
Shaowu,51,CN,1589151399,78,27.34,117.48,71.74,1.52
Norsup,75,VU,1589151400,74,-16.07,167.38,80.6,3.36
Coquimbo,0,CL,1589151401,82,-29.95,-71.34,57.2,4.7
Alyangula,61,AU,1589151402,65,-13.85,136.42,77.0,3.36
Meghri,86,AM,1589151403,71,38.9,46.24,55.36,1.28
Kalakamati,9,BW,1589151404,67,-20.59,27.31,52.43,9.48
Vytegra,0,RU,1589151406,84,61.01,36.45,35.6,1.5
Semīrom,100,IR,1589151407,64,31.42,51.57,50.92,6.78
Gejiu,0,CN,1589151408,93,23.31,103.16,59.45,1.41
Tabuk,12,PH,1589151410,79,17.42,121.44,78.96,2.35
Denpasar,20,ID,1589151366,100,-8.65,115.22,77.0,6.93
São Miguel do Araguaia,50,BR,1589151412,83,-13.28,-50.16,73.76,3.49
Moyale,59,KE,1589151413,100,3.52,39.06,66.6,5.57
Adrar,30,MR,1589151414,14,20.5,-10.07,86.61,13.78
Lata,40,PT,1589151415,82,40.16,-8.33,59.0,10.29
Spornoye,94,RU,1589151416,81,50.84,37.29,50.0,8.95
Piaçabuçu,98,BR,1589151417,85,-10.41,-36.43,77.27,7.76
San Miguel de Tucumán,0,AR,1589151419,60,-26.82,-65.22,73.4,2.48
Quang Ngai,1,VN,1589151420,81,15.12,108.8,75.11,4.61
Hamilton,59,US,1589151150,55,39.18,-84.53,57.99,5.01
Barra de Tecoanapa,0,MX,1589151422,59,16.52,-98.75,87.51,10.16
Longyearbyen,75,SJ,1589151423,61,78.22,15.64,17.6,8.05
Los Llanos de Aridane,25,ES,1589151424,73,28.66,-17.92,69.8,13.87
La Santisima Trinidad,20,BO,1589151426,66,-14.83,-64.9,84.2,6.93
Almaznyy,20,RU,1589151427,76,48.04,40.05,55.4,4.47
Lavrentiya,97,RU,1589151428,91,65.58,-171.0,36.39,5.41
Shouguang,72,CN,1589151429,86,36.88,118.74,59.0,3.0
Ambulu,93,ID,1589151430,88,-8.35,113.61,76.89,3.44
Smiths Falls,95,CA,1589151431,64,44.9,-76.02,53.01,7.0
Tres Arroyos,44,AR,1589151432,46,-38.37,-60.28,56.19,10.07
Samarai,46,PG,1589151434,81,-10.62,150.67,80.35,11.74
Jizan,10,SA,1589151435,55,17.33,42.67,89.6,0.47
Bilma,3,NE,1589151436,11,18.69,12.92,85.23,9.62
Alice Springs,86,AU,1589151316,49,-23.7,133.88,48.2,3.36
Wenatchee,1,US,1589151176,19,47.42,-120.31,78.8,11.41
Bela,69,IN,1589151439,25,25.93,81.98,86.41,5.57
Port Macquarie,1,AU,1589151441,67,-31.43,152.92,55.99,1.99
Maniitsoq,100,GL,1589151442,79,65.42,-52.9,42.49,17.27
Podlesnoye,0,RU,1589151443,83,51.82,47.01,48.81,9.26
Kousséri,0,CM,1589151444,13,12.08,15.03,86.0,2.24
Zhigansk,7,RU,1589151445,96,66.77,123.37,26.19,20.04
Cockburn Town,39,TC,1589151266,80,21.46,-71.14,80.8,25.61
Kudahuvadhoo,84,MV,1589151448,76,2.67,72.89,85.57,16.93
Batticaloa,100,LK,1589151449,79,7.71,81.69,81.73,2.53
Masterton,98,NZ,1589151450,67,-40.96,175.66,63.0,1.01
Oodweyne,3,SO,1589151451,51,9.41,45.06,75.87,4.61
Riyadh,75,SA,1589151277,27,24.69,46.72,87.8,8.05
Vanimo,83,PG,1589151454,77,-2.67,141.3,83.52,3.6
Celendín,64,PE,1589151455,81,-6.87,-78.15,58.84,5.35
Revda,100,RU,1589151456,76,56.8,59.93,55.4,5.1
Impfondo,91,CG,1589151457,96,1.64,18.07,72.68,3.71
Road Town,51,VG,1589151384,86,18.42,-64.62,81.0,1.01
Eyl,61,SO,1589151459,75,7.98,49.82,83.23,8.57
Zhicheng,17,CN,1589151461,79,30.3,111.5,66.0,3.85
Hong Kong,69,HK,1589151183,69,22.29,114.16,82.0,4.0
Martapura,75,ID,1589151463,100,-3.42,114.85,78.8,1.12
Moussoro,1,TD,1589151464,11,13.64,16.49,87.71,8.66
Udachny,90,RU,1589151465,79,66.42,112.4,24.8,8.95
Klos,58,AL,1589151466,76,41.51,20.09,53.6,1.12
Volksrust,0,ZA,1589151467,54,-27.37,29.88,46.44,3.09
Pouembout,0,NC,1589151469,66,-21.13,164.9,76.6,2.13
Mitsamiouli,2,KM,1589151470,76,-11.38,43.28,81.12,5.82
Miraí,65,BR,1589151471,75,-21.2,-42.61,63.68,3.33
Santa Lucía,20,ES,1589151472,64,27.91,-15.54,69.8,19.46
Narón,3,ES,1589151473,93,43.52,-8.15,53.6,3.36
Owando,83,CG,1589151474,97,-0.48,15.9,71.06,2.55
Akhtubinsk,0,RU,1589151476,76,48.28,46.17,50.59,10.76
Hasaki,75,JP,1589151477,100,35.73,140.83,69.01,4.7
San Cristobal,20,VE,1589151478,49,7.77,-72.22,93.2,9.17
Grindavik,75,IS,1589151479,72,63.84,-22.43,42.8,17.22
Verkhnyaya Sinyachikha,82,RU,1589151480,87,57.98,61.67,55.08,3.89
Maridi,99,SS,1589151481,93,4.92,29.47,69.33,1.23
Laramie,20,US,1589151482,32,41.31,-105.59,54.0,13.87
Salto,0,UY,1589151484,64,-31.38,-57.97,75.2,8.05
Takhtamygda,0,RU,1589151485,56,54.1,123.57,42.35,10.2
Pacific Grove,1,US,1589151486,52,36.62,-121.92,69.01,11.41
Inhambane,25,MZ,1589151487,78,-23.86,35.38,68.41,6.96
Klaksvík,55,FO,1589151488,72,62.23,-6.59,32.0,5.82
Nizhnevartovsk,98,RU,1589151489,62,60.93,76.55,55.4,2.24
Boguchany,53,RU,1589151491,52,58.38,97.45,47.8,2.8
Esperance,78,AU,1589151492,57,-33.87,121.9,50.0,11.41
Vila Velha,75,BR,1589151493,78,-20.33,-40.29,72.0,2.24
Camacupa,93,AO,1589151494,75,-12.02,17.48,64.2,3.98
Hobyo,67,SO,1589151495,79,5.35,48.53,83.79,11.32
Mae Sai,17,TH,1589151497,100,20.43,99.88,73.4,0.34
Slantsy,52,RU,1589151498,68,59.12,28.09,46.49,7.45
Shimoda,79,JP,1589151499,75,34.67,138.95,71.4,15.55
Raudeberg,26,NO,1589151500,88,61.99,5.14,36.0,16.98
Katsuura,65,JP,1589151501,79,35.13,140.3,73.0,1.01
Kiryat Gat,0,IL,1589151502,72,31.61,34.76,64.0,3.74
Muroto-misakicho,40,JP,1589151503,68,33.28,134.15,69.8,6.93
Chazuta,56,PE,1589151505,66,-6.57,-76.14,78.96,1.43
Russell,1,US,1589151506,27,32.35,-85.2,78.8,4.7
Naples,35,IT,1589151507,87,40.83,14.25,69.01,2.24
Huarmey,3,PE,1589151508,79,-10.07,-78.15,69.21,8.88
Altamont,1,US,1589151510,15,42.21,-121.74,79.0,14.99
Tuatapere,100,NZ,1589151511,73,-46.13,167.68,55.02,6.24
Philadelphia,40,US,1589151279,27,39.95,-75.16,62.6,14.99
Panabá,53,MX,1589151513,77,21.28,-88.27,80.4,15.32
Cabo San Lucas,40,MX,1589151278,19,22.89,-109.91,91.99,11.41
Ipixuna,40,BR,1589151515,88,-1.76,-48.8,78.8,6.93
Biak,92,ID,1589151516,77,-0.91,122.88,78.35,7.45
Itoman,75,JP,1589151518,100,26.12,127.67,75.2,8.05
Bosaso,74,SO,1589151519,57,11.28,49.18,86.59,1.5
Bojnourd,75,IR,1589151520,82,37.47,57.33,59.0,11.41
Zaykovo,64,RU,1589151521,93,57.56,62.76,54.39,1.32
Verkhnevilyuysk,0,RU,1589151522,77,63.45,120.32,34.84,6.42
Catuday,38,PH,1589151523,79,16.29,119.81,82.72,8.66
Kuril'sk,100,RU,1589151525,93,45.23,147.88,39.13,9.08
Nouadhibou,91,MR,1589151526,77,20.93,-17.03,67.44,23.96
Miraflores,75,MX,1589151527,23,19.22,-98.81,77.0,6.93
Mount Gambier,14,AU,1589151528,100,-37.83,140.77,44.6,10.29
Lishui,90,CN,1589151529,84,28.46,119.91,70.2,1.45
Rwamagana,20,RW,1589151530,88,-1.95,30.43,66.2,3.36
Daokou,91,CN,1589151532,46,35.56,114.51,63.55,16.35
Javānrūd,0,IR,1589151533,61,34.8,46.52,46.17,3.29
Kongolo,90,CD,1589151534,92,-5.38,27.0,70.48,3.22
Algiers,20,DZ,1589151483,59,36.75,3.04,62.6,6.93
Katangli,100,RU,1589151536,66,51.71,143.23,45.03,5.79
Marsala,77,IT,1589151537,68,37.8,12.44,68.0,8.05
Umeå,54,SE,1589151538,69,63.83,20.26,34.0,9.17
Sisophon,92,KH,1589151540,83,13.59,102.97,81.88,5.03
Kununurra,46,AU,1589151541,33,-15.77,128.73,75.2,8.05
Wanning,49,CN,1589151542,90,18.8,110.4,80.2,9.66
Qasigiannguit,99,GL,1589151543,74,68.82,-51.19,33.8,9.17
Goderich,100,CA,1589151544,88,43.75,-81.72,51.01,4.0
Noshiro,75,JP,1589151545,100,40.2,140.02,55.4,8.05
Ojinaga,1,MX,1589151547,15,29.57,-104.42,93.2,16.11
Filingué,37,NE,1589151548,51,14.35,3.32,86.43,24.05
Lishu,10,CN,1589151549,34,43.3,124.33,56.91,15.43
Shubarshi,100,KZ,1589151550,57,48.59,57.19,60.91,7.65
Chechat,1,IN,1589151551,26,24.77,75.88,85.68,8.75
Scottsbluff,75,US,1589151286,35,41.87,-103.67,57.2,17.22
Ugoofaaru,98,MV,1589151553,78,5.67,73.0,84.9,8.97
Opuwo,67,NA,1589151547,38,-18.06,13.84,70.9,8.46
Kralendijk,59,BQ,1589151556,74,12.15,-68.27,82.4,25.28
Atar,24,MR,1589151557,17,20.52,-13.05,84.51,8.61
Kharan,79,PK,1589151558,13,28.58,65.42,84.29,3.76
Dolni Dabnik,75,BG,1589151484,59,43.4,24.43,66.2,4.59
Camacha,40,PT,1589151560,77,33.08,-16.33,66.2,24.16
Jiaozuo,89,CN,1589151561,34,35.24,113.23,65.77,12.28
Kalvarija,70,LT,1589151544,73,54.4,23.23,52.07,10.96
Sivas Province,37,TR,1589151535,77,39.79,37.0,40.89,1.5
Amapá,89,BR,1589151565,97,1.0,-52.0,74.26,2.39
Southbridge,88,US,1589151566,32,42.08,-72.03,57.0,1.99
Gainesville,1,US,1589151542,69,29.65,-82.32,73.99,6.93
Tinde,81,TZ,1589151568,83,-3.88,33.2,65.89,4.99
Kulhudhuffushi,98,MV,1589151569,75,6.62,73.07,85.35,7.92
Bonnyville,75,CA,1589151571,31,54.27,-110.73,46.4,8.05
Bereda,62,ES,1589151572,99,43.27,-7.54,54.0,3.0
Jardim,0,BR,1589151573,63,-21.48,-56.14,72.07,5.28
Wajir,94,KE,1589151574,81,1.75,40.06,75.67,9.17
Aklavik,40,CA,1589151483,46,68.22,-135.01,50.0,6.93
San Lorenzo,24,PY,1589151576,35,-25.33,-57.53,84.2,10.29
Kovdor,100,RU,1589151577,97,67.57,30.48,35.78,10.63
Morant Bay,20,JM,1589151579,66,17.88,-76.41,86.0,25.28
Rūdsar,100,IR,1589151580,80,37.14,50.29,59.92,5.17
Skellefteå,34,SE,1589151581,95,64.75,20.95,32.0,5.82
Sakakah,0,SA,1589151582,22,29.97,40.21,68.0,5.82
Linkou,86,CN,1589151583,73,45.3,130.28,52.34,10.96
Beian,40,NO,1589151584,80,63.66,9.57,35.6,11.41
Kutum,0,SD,1589151585,21,14.2,24.67,69.57,8.72
Griffith,90,US,1589151386,86,41.53,-87.42,37.4,17.29
Bagdarin,20,RU,1589151588,70,54.43,113.6,35.89,17.76
Tayu,95,ID,1589151589,87,-6.54,111.05,78.64,6.22
Gao,1,ML,1589151590,11,16.64,1.64,89.26,7.54
Mehamn,86,NO,1589151591,93,71.04,27.85,31.26,6.71
Belyy Yar,0,RU,1589151592,86,53.6,91.39,39.2,2.59
Russas,27,BR,1589151594,89,-4.94,-37.98,75.78,5.08
Parambu,57,BR,1589151595,77,-6.21,-40.69,67.91,4.47
Carmo do Paranaíba,0,BR,1589151596,68,-19.0,-46.32,62.01,5.01
Lufilufi,75,WS,1589151548,75,-13.87,-171.6,89.6,5.82
Vostok,100,RU,1589151598,92,46.49,135.88,45.88,2.73
Asău,98,RO,1589151599,71,46.43,26.4,54.0,4.92
Rocha,0,UY,1589151600,81,-34.48,-54.33,61.56,8.43
Alice Town,100,BS,1589151602,90,25.72,-79.3,72.3,17.11
Baykit,84,RU,1589151604,60,61.67,96.37,43.39,3.47
Maningrida,73,AU,1589151606,63,-12.07,134.27,79.29,14.41
Oussouye,75,SN,1589151607,94,12.48,-16.55,75.2,4.7
Parakai,92,NZ,1589151609,78,-36.65,174.43,64.0,3.0
The Valley,20,AI,1589151413,74,18.22,-63.06,82.4,12.75
Kantunil,40,MX,1589151611,58,20.8,-89.03,86.0,14.99
Meulaboh,96,ID,1589151612,88,4.14,96.13,77.58,4.29
Robertsport,5,LR,1589151539,81,6.75,-11.37,81.55,12.46
Aljezur,80,PT,1589151614,97,37.32,-8.8,63.0,13.85
Jinji,58,CN,1589151616,90,23.23,110.83,77.47,4.07
Rapid Valley,90,US,1589151617,48,44.06,-103.15,44.6,11.41
Hienghène,49,NC,1589151618,71,-20.68,164.93,74.98,7.07
Warri,92,NG,1589151619,92,5.52,5.75,74.97,2.91
Lashio,0,MM,1589151620,61,22.93,97.75,65.75,1.14
Hwange,11,ZW,1589151622,53,-18.37,26.5,59.32,4.18
Timrå,100,SE,1589151623,50,62.49,17.33,33.8,8.05
Taltal,28,CL,1589151624,81,-25.4,-70.48,58.28,4.47
Makakilo City,20,US,1589151625,43,21.35,-158.09,87.8,5.82
Peniche,97,PT,1589151626,91,39.36,-9.38,61.0,11.99
Dongying,96,CN,1589151627,34,37.46,118.49,64.2,9.8
Derzhavīnsk,0,KZ,1589151628,67,51.1,66.32,63.16,6.08
Eydhafushi,99,MV,1589151630,78,5.1,73.07,84.58,8.68
Humberto de Campos,64,BR,1589151631,92,-2.6,-43.46,76.37,4.43
Bacalar,75,MX,1589151632,66,18.67,-88.38,89.6,11.41
Baghdad,0,IQ,1589151611,40,33.34,44.4,68.0,1.12
Acaraú,100,BR,1589151634,84,-2.89,-40.12,76.39,11.18
Buala,79,SB,1589151588,72,-8.14,159.59,85.19,6.69
Pimentel,39,PE,1589151575,82,-6.84,-79.93,69.01,12.82
Menongue,98,AO,1589151638,62,-14.66,17.69,63.79,0.43
Waipawa,91,NZ,1589151639,67,-41.41,175.52,62.6,13.87
Trelew,79,AR,1589151543,41,-43.25,-65.31,55.58,28.32
Abū Zabad,62,SD,1589151641,14,12.35,29.25,83.52,9.8
Sendafa,40,ET,1589151642,67,9.15,39.03,59.0,3.36
Tlaltenango,75,MX,1589151644,36,19.17,-98.33,75.2,18.34
Misratah,43,LY,1589151645,24,32.38,15.09,83.1,16.91
Riberalta,21,BO,1589151646,73,-10.98,-66.1,78.15,2.44
Natal,20,BR,1589151354,88,-5.79,-35.21,78.8,5.82
Sindor,70,RU,1589151648,87,62.86,51.89,44.62,8.12
Zhangaözen,87,KZ,1589151649,87,43.3,52.8,56.3,19.26
Oskarshamn,100,SE,1589151651,89,57.26,16.45,46.99,1.01
Maïné Soroa,0,NE,1589151652,13,13.21,12.02,83.68,5.75
Hungund,67,IN,1589151653,58,16.07,76.05,80.44,5.73
Bagan,0,RU,1589151654,50,54.1,77.66,61.88,3.6
Beroroha,0,MG,1589151655,71,-21.67,45.17,67.28,4.68
Khandyga,97,RU,1589151656,87,62.67,135.6,36.81,0.67
Namtsy,86,RU,1589151658,55,62.72,129.67,37.4,6.71
Annapolis,1,US,1589151620,58,38.98,-76.49,63.0,12.75
Amuntai,76,ID,1589151660,89,-2.42,115.25,76.75,1.21
Margate,90,GB,1589151661,61,51.38,1.39,48.0,11.01
Fenoarivo,75,MG,1589151662,87,-18.93,47.44,59.0,9.17
Birobidzhan,94,RU,1589151663,49,48.8,132.95,53.46,11.21
Muyezerskiy,100,RU,1589151665,71,63.93,31.65,39.09,12.97
Marzuq,5,YE,1589151540,26,14.4,46.47,78.1,4.83
Antequera,20,ES,1589151667,51,37.02,-4.56,63.0,3.36
Zhangye,0,CN,1589151668,54,38.93,100.45,45.0,5.5
Moindou,20,NC,1589151669,73,-21.69,165.68,73.4,3.36
Djibouti,1,DJ,1589151670,79,11.5,42.5,84.2,3.36
Puerto Escondido,20,MX,1589151672,74,15.85,-97.07,87.8,6.93
Rosarito,40,MX,1589151673,64,32.33,-117.03,72.0,9.17
Cedrales,0,PY,1589151674,57,-25.65,-54.7,75.2,4.7
Jumla,33,NP,1589151572,63,29.27,82.18,48.88,3.18
Sokoni,75,TZ,1589151676,78,-6.43,39.55,80.6,5.82
Baião,51,BR,1589151677,96,-2.79,-49.67,75.9,1.79
Iquitos,40,PE,1589151678,58,-3.75,-73.25,87.8,4.7
